{"data": {"link": "https://www.tripadvisor.com/Hotels-g60763-New_York_City_New_York-Hotels.html", "total_pages": 32, "current_page": 1, "total_items_count": 946, "items_count": 37, "results": [{"id": 8776490, "name": "The Bernic Hotel New York City, Tapestry Collection by Hilton", "link": "https://www.tripadvisor.com/Hotel_Review-g60763-d8776490-Reviews-The_Bernic_Hotel_New_York_City_Tapestry_Collection_by_Hilton-New_York_City_New_York.html", "reviews": 953, "rating": 4.5, "price_range_usd": {"min": 217, "max": 393}, "phone": "+1 212-754-9700", "address": "145 - 147 East 47th Street, New York City, NY 10017", "detailed_address": {"street": "145 - 147 East 47th Street", "city": "New York City", "postal_code": "10017", "state": "New York", "country": "United States"}, "ranking": {"current_rank": 157, "total": 503}, "featured_image": null, "latitude": 40.754417, "longitude": -73.97266, "amenities": ["Free Wifi", "Restaurant", "Room service", "Bar/Lounge"], "providers": ["Tapestry"]}, {"id": 93358, "name": "Pod 51 Hotel", "link": "https://www.tripadvisor.com/Hotel_Review-g60763-d93358-Reviews-Pod_51_Hotel-New_York_City_New_York.html", "reviews": 6304, "rating": 4, "price_range_usd": {"min": 160, "max": 252}, "phone": "+1 212-355-0300", "address": "230 East 51st Street, New York City, NY 10022-6571", "detailed_address": {"street": "230 East 51st Street", "city": "New York City", "postal_code": "10022-6571", "state": "New York", "country": "United States"}, "ranking": {"current_rank": 242, "total": 503}, "featured_image": null, "latitude": 40.755814, "longitude": -73.96907, "amenities": ["Free Wifi", "Restaurant", "Bar/Lounge"], "providers": ["Booking.com", "Hotels.com", "Priceline", "Vio.com"]}, {"id": 93627, "name": "West Side YMCA", "link": "https://www.tripadvisor.com/Hotel_Review-g60763-d93627-Reviews-West_Side_YMCA-New_York_City_New_York.html", "reviews": 1651, "rating": 3, "price_range_usd": {"min": 105, "max": 151}, "phone": "+1 212-912-2625", "address": "5 West 63rd Street, New York City, NY 10023-7162", "detailed_address": {"street": "5 West 63rd Street", "city": "New York City", "postal_code": "10023-7162", "state": "New York", "country": "United States"}, "ranking": {"current_rank": 46, "total": 191}, "featured_image": null, "latitude": 40.77096, "longitude": -73.98044, "amenities": ["Pool", "Fitness center"], "providers": ["Booking.com", "Trip.com", "Priceline", "Skyscanner.com"]}, {"id": 23448880, "name": "Motto by Hilton New York City Chelsea", "link": "https://www.tripadvisor.com/Hotel_Review-g60763-d23448880-Reviews-Motto_by_Hilton_New_York_City_Chelsea-New_York_City_New_York.html", "reviews": 1116, "rating": 5, "price_range_usd": {"min": 216, "max": 384}, "phone": "+1 212-668-8624", "address": "113 West 24th Street, New York City, NY 10001", "detailed_address": {"street": "113 West 24th Street", "city": "New York City", "postal_code": "10001", "state": "New York", "country": "United States"}, "ranking": {"current_rank": 32, "total": 503}, "featured_image": null, "latitude": 40.74406, "longitude": -73.99294, "amenities": ["Free Wifi", "Restaurant", "Room service", "Bar/Lounge", "Fitness center"], "providers": ["Motto", "Booking.com", "Expedia.com", "Hotels.com"]}, {"id": 93517, "name": "Paramount Hotel", "link": "https://www.tripadvisor.com/Hotel_Review-g60763-d93517-Reviews-Paramount_Hotel-New_York_City_New_York.html", "reviews": 2684, "rating": 3.5, "price_range_usd": {"min": 202, "max": 287}, "phone": "+1 212-764-5500", "address": "235 W 46th St, New York City, NY 10036-1409", "detailed_address": {"street": "235 W 46th St", "city": "New York City", "postal_code": "10036-1409", "state": "New York", "country": "United States"}, "ranking": {"current_rank": 474, "total": 503}, "featured_image": null, "latitude": 40.75956, "longitude": -73.98696, "amenities": ["Fitness center"], "providers": ["Booking.com", "Expedia.com", "Hotels.com", "Vio.com"]}, {"id": 27416412, "name": "Ly New York Hotel", "link": "https://www.tripadvisor.com/Hotel_Review-g60763-d27416412-Reviews-Ly_New_York_Hotel-New_York_City_New_York.html", "reviews": 2, "rating": 5, "price_range_usd": {"min": 145, "max": 288}, "phone": "+1 917-456-1133", "address": "15-61 127th St 15- 63 127th St, New York City, NY 11356", "detailed_address": {"street": "15-61 127th St, 15- 63 127th St", "city": "New York City", "postal_code": "11356", "state": "New York", "country": "United States"}, "ranking": {"current_rank": 440, "total": 503}, "featured_image": null, "latitude": 40.78345, "longitude": -73.840515, "amenities": ["Free Wifi", "Free parking", "Restaurant", "Bar/Lounge"], "providers": ["Booking.com", "Agoda.com"]}, {"id": 607712, "name": "DoubleTree by Hilton New York Midtown Fifth Ave", "link": "https://www.tripadvisor.com/Hotel_Review-g60763-d607712-Reviews-DoubleTree_by_Hilton_New_York_Midtown_Fifth_Ave-New_York_City_New_York.html", "reviews": 2458, "rating": 4, "price_range_usd": {"min": 219, "max": 380}, "phone": "+1 212-262-3200", "address": "25 West 51st Street, New York City, NY 10019", "detailed_address": {"street": "25 West 51st Street", "city": "New York City", "postal_code": "10019", "state": "New York", "country": "United States"}, "ranking": {"current_rank": 407, "total": 503}, "featured_image": null, "latitude": 40.76004, "longitude": -73.97822, "amenities": ["Free Wifi", "Restaurant", "Room service", "Bar/Lounge", "Fitness center"], "providers": ["DoubleTree"]}, {"id": 23462501, "name": "Margaritaville Resort Times Square", "link": "https://www.tripadvisor.com/Hotel_Review-g60763-d23462501-Reviews-Margaritaville_Resort_Times_Square-New_York_City_New_York.html", "reviews": 783, "rating": 4.5, "price_range_usd": {"min": 297, "max": 461}, "phone": "+1 212-221-3007", "address": "560 7th Ave, New York City, NY 10018", "detailed_address": {"street": "560 7th Ave", "city": "New York City", "postal_code": "10018", "state": "New York", "country": "United States"}, "ranking": {"current_rank": 126, "total": 503}, "featured_image": null, "latitude": 40.755108, "longitude": -73.98815, "amenities": ["Free Wifi", "Pool", "Restaurant", "Room service", "Bar/Lounge"], "providers": ["Hotels.com", "Booking.com", "Expedia.com", "Tripadvisor"]}, {"id": 93520, "name": "Park Central Hotel New York", "link": "https://www.tripadvisor.com/Hotel_Review-g60763-d93520-Reviews-Park_Central_Hotel_New_York-New_York_City_New_York.html", "reviews": 8863, "rating": 4, "price_range_usd": {"min": 253, "max": 475}, "phone": "+1 212-247-8000", "address": "870 7th Ave, New York City, NY 10019", "detailed_address": {"street": "870 7th Ave", "city": "New York City", "postal_code": "10019", "state": "New York", "country": "United States"}, "ranking": {"current_rank": 346, "total": 503}, "featured_image": null, "latitude": 40.764618, "longitude": -73.980896, "amenities": ["Room service", "Fitness center"], "providers": ["Booking.com", "Trip.com", "Official Site", "ZenHotels.com"]}, {"id": 12301470, "name": "Moxy NYC Times Square", "link": "https://www.tripadvisor.com/Hotel_Review-g60763-d12301470-Reviews-Moxy_NYC_Times_Square-New_York_City_New_York.html", "reviews": 3638, "rating": 4.5, "price_range_usd": {"min": 223, "max": 388}, "phone": "+1 212-967-6699", "address": "485 7th Avenue, New York City, NY 10018-6804", "detailed_address": {"street": "485 7th Avenue", "city": "New York City", "postal_code": "10018-6804", "state": "New York", "country": "United States"}, "ranking": {"current_rank": 48, "total": 503}, "featured_image": null, "latitude": 40.752316, "longitude": -73.98913, "amenities": ["Free Wifi", "Restaurant", "Bar/Lounge", "Fitness center"], "providers": ["Hotels.com", "Booking.com", "Expedia.com", "Skyscanner.com"]}, {"id": 112064, "name": "Warwick New York", "link": "https://www.tripadvisor.com/Hotel_Review-g60763-d112064-Reviews-Warwick_New_York-New_York_City_New_York.html", "reviews": 5448, "rating": 4.5, "price_range_usd": {"min": 270, "max": 433}, "phone": "+1 212-247-2700", "address": "65 W 54th St, New York City, NY 10019", "detailed_address": {"street": "65 W 54th St", "city": "New York City", "postal_code": "10019", "state": "New York", "country": "United States"}, "ranking": {"current_rank": 252, "total": 503}, "featured_image": null, "latitude": 40.762466, "longitude": -73.9781, "amenities": ["Restaurant", "Room service", "Bar/Lounge", "Fitness center"], "providers": ["Booking.com", "Expedia.com", "Hotels.com", "Skyscanner.com"]}, {"id": 122005, "name": "The New Yorker, A Wyndham Hotel", "link": "https://www.tripadvisor.com/Hotel_Review-g60763-d122005-Reviews-The_New_Yorker_A_Wyndham_Hotel-New_York_City_New_York.html", "reviews": 16334, "rating": 4, "price_range_usd": {"min": 218, "max": 362}, "phone": "+1 212-971-0101", "address": "481 8th Avenue & 34th Street, New York City, NY 10001-1809", "detailed_address": {"street": "481 8th Avenue & 34th Street", "city": "New York City", "postal_code": "10001-1809", "state": "New York", "country": "United States"}, "ranking": {"current_rank": 305, "total": 503}, "featured_image": null, "latitude": 40.75263, "longitude": -73.993385, "amenities": ["Restaurant", "Room service", "Bar/Lounge", "Fitness center"], "providers": ["Booking.com", "Expedia.com", "Priceline", "Skyscanner.com"]}, {"id": 1601249, "name": "Hilton New York Fashion District", "link": "https://www.tripadvisor.com/Hotel_Review-g60763-d1601249-Reviews-Hilton_New_York_Fashion_District-New_York_City_New_York.html", "reviews": 4205, "rating": 4, "price_range_usd": {"min": 207, "max": 346}, "phone": "+1 212-858-5888", "address": "152 West 26th Street, New York City, NY 10001", "detailed_address": {"street": "152 West 26th Street", "city": "New York City", "postal_code": "10001", "state": "New York", "country": "United States"}, "ranking": {"current_rank": 289, "total": 503}, "featured_image": null, "latitude": 40.745525, "longitude": -73.99376, "amenities": ["Room service", "Fitness center"], "providers": ["Hilton"]}, {"id": 93454, "name": "Crowne Plaza Times Square Manhattan, an IHG Hotel", "link": "https://www.tripadvisor.com/Hotel_Review-g60763-d93454-Reviews-Crowne_Plaza_Times_Square_Manhattan_an_IHG_Hotel-New_York_City_New_York.html", "reviews": 12261, "rating": 4, "price_range_usd": {"min": 261, "max": 435}, "phone": "+1 212-977-4000", "address": "1605 Broadway, New York City, NY 10019", "detailed_address": {"street": "1605 Broadway", "city": "New York City", "postal_code": "10019", "state": "New York", "country": "United States"}, "ranking": {"current_rank": 375, "total": 503}, "featured_image": null, "latitude": 40.760742, "longitude": -73.98506, "amenities": ["Room service"], "providers": ["Expedia.com", "Hotels.com", "Booking.com", "Skyscanner.com"]}, {"id": 7891458, "name": "Arlo SoHo", "link": "https://www.tripadvisor.com/Hotel_Review-g60763-d7891458-Reviews-Arlo_SoHo-New_York_City_New_York.html", "reviews": 3196, "rating": 4.5, "price_range_usd": {"min": 232, "max": 393}, "phone": "+1 212-342-7000", "address": "231 Hudson Street, New York City, NY 10013", "detailed_address": {"street": "231 Hudson Street", "city": "New York City", "postal_code": "10013", "state": "New York", "country": "United States"}, "ranking": {"current_rank": 25, "total": 503}, "featured_image": null, "latitude": 40.72449, "longitude": -74.00797, "amenities": ["Free Wifi", "Restaurant", "Room service", "Bar/Lounge"], "providers": ["Hotels.com", "Booking.com", "Expedia.com", "Skyscanner.com"]}, {"id": 12551350, "name": "Pod Times Square", "link": "https://www.tripadvisor.com/Hotel_Review-g60763-d12551350-Reviews-Pod_Times_Square-New_York_City_New_York.html", "reviews": 2837, "rating": 4, "price_range_usd": {"min": 160, "max": 278}, "phone": "+1 844-763-7666", "address": "400 W 42nd St, New York City, NY 10036-6809", "detailed_address": {"street": "400 W 42nd St", "city": "New York City", "postal_code": "10036-6809", "state": "New York", "country": "United States"}, "ranking": {"current_rank": 156, "total": 503}, "featured_image": null, "latitude": 40.758465, "longitude": -73.9931, "amenities": ["Free Wifi", "Restaurant", "Bar/Lounge"], "providers": ["Booking.com", "Expedia.com", "Hotels.com", "KLOOK"]}, {"id": 93450, "name": "Hyatt Grand Central New York", "link": "https://www.tripadvisor.com/Hotel_Review-g60763-d93450-Reviews-Hyatt_Grand_Central_New_York-New_York_City_New_York.html", "reviews": 13849, "rating": 3.5, "price_range_usd": {"min": 259, "max": 390}, "phone": "+1 212-883-1234", "address": "109 East 42nd Street At Grand Central Terminal, New York City, NY 10017-8500", "detailed_address": {"street": "109 East 42nd Street, At Grand Central Terminal", "city": "New York City", "postal_code": "10017-8500", "state": "New York", "country": "United States"}, "ranking": {"current_rank": 411, "total": 503}, "featured_image": null, "latitude": 40.752064, "longitude": -73.9763, "amenities": ["Free Wifi", "Fitness center"], "providers": ["Booking.com", "Expedia.com", "Hotels.com", "Algotels"]}, {"id": 208453, "name": "Hilton New York Times Square", "link": "https://www.tripadvisor.com/Hotel_Review-g60763-d208453-Reviews-Hilton_New_York_Times_Square-New_York_City_New_York.html", "reviews": 8645, "rating": 4.5, "price_range_usd": {"min": 267, "max": 402}, "phone": "+1 212-913-9488", "address": "234 West 42nd Street, New York City, NY 10036", "detailed_address": {"street": "234 West 42nd Street", "city": "New York City", "postal_code": "10036", "state": "New York", "country": "United States"}, "ranking": {"current_rank": 316, "total": 503}, "featured_image": null, "latitude": 40.756603, "longitude": -73.98883, "amenities": ["Restaurant", "Bar/Lounge", "Fitness center"], "providers": ["Hilton", "Hotels.com", "Expedia.com", "Booking.com"]}, {"id": 6510520, "name": "Hilton Garden Inn New York/Midtown Park Ave", "link": "https://www.tripadvisor.com/Hotel_Review-g60763-d6510520-Reviews-Hilton_Garden_Inn_New_York_Midtown_Park_Ave-New_York_City_New_York.html", "reviews": 1704, "rating": 4, "price_range_usd": {"min": 205, "max": 330}, "phone": "+1 212-755-1108", "address": "45 East 33rd Street, New York City, NY 10016", "detailed_address": {"street": "45 East 33rd Street", "city": "New York City", "postal_code": "10016", "state": "New York", "country": "United States"}, "ranking": {"current_rank": 245, "total": 503}, "featured_image": null, "latitude": 40.746876, "longitude": -73.982346, "amenities": ["Free Wifi", "Restaurant", "Room service", "Bar/Lounge", "Fitness center"], "providers": ["Hilton Garden Inn"]}, {"id": 15237449, "name": "Artezen Hotel", "link": "https://www.tripadvisor.com/Hotel_Review-g60763-d15237449-Reviews-Artezen_Hotel-New_York_City_New_York.html", "reviews": 552, "rating": 5, "price_range_usd": {"min": 212, "max": 352}, "phone": "+1 212-566-5511", "address": "24 John Street, New York City, NY 10038-4020", "detailed_address": {"street": "24 John Street", "city": "New York City", "postal_code": "10038-4020", "state": "New York", "country": "United States"}, "ranking": {"current_rank": 34, "total": 503}, "featured_image": null, "latitude": 40.709583, "longitude": -74.00874, "amenities": ["Free Wifi", "Fitness center"], "providers": ["Hotels.com", "travelup.com", "Vio.com", "Skyscanner.com"]}, {"id": 8035866, "name": "Hampton Inn Manhattan/times Square Central", "link": "https://www.tripadvisor.com/Hotel_Review-g60763-d8035866-Reviews-Hampton_Inn_Manhattan_times_Square_Central-New_York_City_New_York.html", "reviews": 3692, "rating": 4.5, "price_range_usd": {"min": 227, "max": 362}, "phone": "+1 212-221-1188", "address": "220 West 41st St., New York City, NY 10036-7203", "detailed_address": {"street": "220 West 41st St.", "city": "New York City", "postal_code": "10036-7203", "state": "New York", "country": "United States"}, "ranking": {"current_rank": 166, "total": 503}, "featured_image": null, "latitude": 40.7556, "longitude": -73.9887, "amenities": ["Free Wifi", "Breakfast included", "Fitness center"], "providers": ["Hampton", "Booking.com", "Expedia.com", "Hotels.com"]}, {"id": 17783246, "name": "Moxy NYC East Village", "link": "https://www.tripadvisor.com/Hotel_Review-g60763-d17783246-Reviews-Moxy_NYC_East_Village-New_York_City_New_York.html", "reviews": 1311, "rating": 5, "price_range_usd": {"min": 258, "max": 451}, "phone": "+1 212-288-6699", "address": "112 East 11th Street, New York City, NY 10003", "detailed_address": {"street": "112 East 11th Street", "city": "New York City", "postal_code": "10003", "state": "New York", "country": "United States"}, "ranking": {"current_rank": 11, "total": 503}, "featured_image": null, "latitude": 40.731506, "longitude": -73.989555, "amenities": ["Free Wifi", "Restaurant", "Bar/Lounge", "Fitness center"], "providers": ["Booking.com", "Hotels.com", "Expedia.com", "Trip.com"]}, {"id": 671150, "name": "The Empire Hotel", "link": "https://www.tripadvisor.com/Hotel_Review-g60763-d671150-Reviews-The_Empire_Hotel-New_York_City_New_York.html", "reviews": 8869, "rating": 3.5, "price_range_usd": {"min": 198, "max": 355}, "phone": "+1 212-265-7400", "address": "44 West 63rd Street, New York City, NY 10023-7029", "detailed_address": {"street": "44 West 63rd Street", "city": "New York City", "postal_code": "10023-7029", "state": "New York", "country": "United States"}, "ranking": {"current_rank": 323, "total": 503}, "featured_image": null, "latitude": 40.771496, "longitude": -73.982666, "amenities": ["Pool", "Restaurant", "Bar/Lounge", "Fitness center"], "providers": ["Expedia.com", "Hotels.com", "Booking.com", "Skyscanner.com"]}, {"id": 11998087, "name": "Embassy Suites by Hilton New York Manhattan Times Square", "link": "https://www.tripadvisor.com/Hotel_Review-g60763-d11998087-Reviews-Embassy_Suites_by_Hilton_New_York_Manhattan_Times_Square-New_York_City_New_York.html", "reviews": 1637, "rating": 4, "price_range_usd": {"min": 243, "max": 423}, "phone": "+1 212-912-0111", "address": "60 West 37th Street, New York City, NY 10018", "detailed_address": {"street": "60 West 37th Street", "city": "New York City", "postal_code": "10018", "state": "New York", "country": "United States"}, "ranking": {"current_rank": 243, "total": 503}, "featured_image": null, "latitude": 40.75134, "longitude": -73.98582, "amenities": ["Free Wifi", "Breakfast included", "Restaurant", "Room service", "Bar/Lounge"], "providers": ["Embassy", "Booking.com", "Expedia.com", "Algotels"]}, {"id": 268216, "name": "Hampton Inn Manhattan-Chelsea", "link": "https://www.tripadvisor.com/Hotel_Review-g60763-d268216-Reviews-Hampton_Inn_Manhattan_Chelsea-New_York_City_New_York.html", "reviews": 2430, "rating": 4, "price_range_usd": {"min": 207, "max": 359}, "phone": "+1 212-414-1000", "address": "108 West 24th Street, New York City, NY 10011", "detailed_address": {"street": "108 West 24th Street", "city": "New York City", "postal_code": "10011", "state": "New York", "country": "United States"}, "ranking": {"current_rank": 253, "total": 503}, "featured_image": null, "latitude": 40.743668, "longitude": -73.99307, "amenities": ["Free Wifi", "Breakfast included", "Restaurant", "Fitness center"], "providers": ["Hampton"]}, {"id": 2173604, "name": "Dream Downtown", "link": "https://www.tripadvisor.com/Hotel_Review-g60763-d2173604-Reviews-Dream_Downtown-New_York_City_New_York.html", "reviews": 4580, "rating": 4, "price_range_usd": {"min": 265, "max": 434}, "phone": "+1 212-229-2559", "address": "355 West 16 Street, New York City, NY 10011", "detailed_address": {"street": "355 West 16 Street", "city": "New York City", "postal_code": "10011", "state": "New York", "country": "United States"}, "ranking": {"current_rank": 318, "total": 503}, "featured_image": null, "latitude": 40.742477, "longitude": -74.00335, "amenities": ["Free Wifi", "Pool", "Restaurant", "Room service", "Bar/Lounge"], "providers": ["Hotels.com", "Expedia.com", "Booking.com", "Skyscanner.com"]}, {"id": 12533513, "name": "PUBLIC Hotel", "link": "https://www.tripadvisor.com/Hotel_Review-g60763-d12533513-Reviews-PUBLIC_Hotel-New_York_City_New_York.html", "reviews": 2020, "rating": 4.5, "price_range_usd": {"min": 206, "max": 416}, "phone": "+1 212-735-6000", "address": "215 Chrystie Street, New York City, NY 10002", "detailed_address": {"street": "215 Chrystie Street", "city": "New York City", "postal_code": "10002", "state": "New York", "country": "United States"}, "ranking": {"current_rank": 20, "total": 503}, "featured_image": null, "latitude": 40.723003, "longitude": -73.99175, "amenities": ["Free Wifi", "Restaurant", "Bar/Lounge", "Fitness center"], "providers": ["Hotels.com", "Expedia.com", "Trip.com", "Algotels"]}, {"id": 93507, "name": "New York Marriott Marquis", "link": "https://www.tripadvisor.com/Hotel_Review-g60763-d93507-Reviews-New_York_Marriott_Marquis-New_York_City_New_York.html", "reviews": 13656, "rating": 4, "price_range_usd": {"min": 424, "max": 641}, "phone": "+1 212-398-1900", "address": "1535 Broadway, New York City, NY 10036", "detailed_address": {"street": "1535 Broadway", "city": "New York City", "postal_code": "10036", "state": "New York", "country": "United States"}, "ranking": {"current_rank": 264, "total": 503}, "featured_image": null, "latitude": 40.758583, "longitude": -73.98582, "amenities": ["Restaurant", "Room service", "Bar/Lounge", "Fitness center"], "providers": ["Booking.com", "Expedia.com", "Hotels.com", "Algotels"]}, {"id": 93437, "name": "Hotel Edison", "link": "https://www.tripadvisor.com/Hotel_Review-g60763-d93437-Reviews-Hotel_Edison-New_York_City_New_York.html", "reviews": 16125, "rating": 4, "price_range_usd": {"min": 215, "max": 405}, "phone": "+1 212-840-5000", "address": "228 West 47th Street, New York City, NY 10036-1401", "detailed_address": {"street": "228 West 47th Street", "city": "New York City", "postal_code": "10036-1401", "state": "New York", "country": "United States"}, "ranking": {"current_rank": 248, "total": 503}, "featured_image": null, "latitude": 40.759735, "longitude": -73.98615, "amenities": ["Bar/Lounge", "Fitness center"], "providers": ["Booking.com", "Priceline", "Algotels", "Skyscanner.com"]}, {"id": 75711, "name": "The Gallivant Times Square", "link": "https://www.tripadvisor.com/Hotel_Review-g60763-d75711-Reviews-The_Gallivant_Times_Square-New_York_City_New_York.html", "reviews": 3456, "rating": 3.5, "price_range_usd": {"min": 172, "max": 253}, "phone": "+1 212-246-8800", "address": "234 W 48th St, New York City, NY 10036", "detailed_address": {"street": "234 W 48th St", "city": "New York City", "postal_code": "10036", "state": "New York", "country": "United States"}, "ranking": {"current_rank": 484, "total": 503}, "featured_image": null, "latitude": 40.760544, "longitude": -73.98633, "amenities": ["Free Wifi", "Restaurant", "Bar/Lounge"], "providers": ["Booking.com", "Priceline", "Skyscanner.com", "Agoda.com"]}, {"id": 1503474, "name": "Distrikt Hotel New York City", "link": "https://www.tripadvisor.com/Hotel_Review-g60763-d1503474-Reviews-Distrikt_Hotel_New_York_City-New_York_City_New_York.html", "reviews": 6540, "rating": 4.5, "price_range_usd": {"min": 211, "max": 350}, "phone": "+1 212-706-6100", "address": "342 West 40th Street, New York City, NY 10018", "detailed_address": {"street": "342 West 40th Street", "city": "New York City", "postal_code": "10018", "state": "New York", "country": "United States"}, "ranking": {"current_rank": 262, "total": 503}, "featured_image": null, "latitude": 40.756695, "longitude": -73.99285, "amenities": ["Free Wifi", "Restaurant", "Bar/Lounge"], "providers": ["Tapestry"]}, {"id": 10541730, "name": "Arlo NoMad", "link": "https://www.tripadvisor.com/Hotel_Review-g60763-d10541730-Reviews-Arlo_NoMad-New_York_City_New_York.html", "reviews": 2395, "rating": 4.5, "price_range_usd": {"min": 229, "max": 378}, "phone": "+1 212-806-7000", "address": "11 East 31st Street, New York City, NY 10016", "detailed_address": {"street": "11 East 31st Street", "city": "New York City", "postal_code": "10016", "state": "New York", "country": "United States"}, "ranking": {"current_rank": 38, "total": 503}, "featured_image": null, "latitude": 40.74627, "longitude": -73.98494, "amenities": ["Free Wifi", "Restaurant", "Bar/Lounge"], "providers": ["Booking.com", "Hotels.com", "Expedia.com", "Priceline"]}, {"id": 93390, "name": "Hotel Belleclaire", "link": "https://www.tripadvisor.com/Hotel_Review-g60763-d93390-Reviews-Hotel_Belleclaire-New_York_City_New_York.html", "reviews": 5032, "rating": 4, "price_range_usd": {"min": 231, "max": 427}, "phone": "+1 212-362-7700", "address": "2175 Broadway, New York City, NY 10024-6686", "detailed_address": {"street": "2175 Broadway", "city": "New York City", "postal_code": "10024-6686", "state": "New York", "country": "United States"}, "ranking": {"current_rank": 58, "total": 503}, "featured_image": null, "latitude": 40.782486, "longitude": -73.98117, "amenities": ["Free Wifi", "Room service", "Fitness center"], "providers": ["Booking.com", "Expedia.com", "Hotels.com", "Agoda.com"]}, {"id": 12297961, "name": "Hilton Garden Inn NYC Financial Center / Manhattan Downtown", "link": "https://www.tripadvisor.com/Hotel_Review-g60763-d12297961-Reviews-Hilton_Garden_Inn_NYC_Financial_Center_Manhattan_Downtown-New_York_City_New_York.html", "reviews": 1363, "rating": 4.5, "price_range_usd": {"min": 183, "max": 323}, "phone": "+1 212-248-1100", "address": "6 Water Street, New York City, NY 10004", "detailed_address": {"street": "6 Water Street", "city": "New York City", "postal_code": "10004", "state": "New York", "country": "United States"}, "ranking": {"current_rank": 39, "total": 503}, "featured_image": null, "latitude": 40.70296, "longitude": -74.01228, "amenities": ["Free Wifi", "Restaurant", "Room service", "Bar/Lounge", "Fitness center"], "providers": ["Hilton Garden Inn", "Hotels.com", "Expedia.com", "Algotels"]}, {"id": 93612, "name": "Shoreham Hotel", "link": "https://www.tripadvisor.com/Hotel_Review-g60763-d93612-Reviews-Shoreham_Hotel-New_York_City_New_York.html", "reviews": 2761, "rating": 4, "price_range_usd": {"min": 178, "max": 361}, "phone": "+1 212-247-6700", "address": "33 W 55th Street, New York City, NY 10019", "detailed_address": {"street": "33 W 55th Street", "city": "New York City", "postal_code": "10019", "state": "New York", "country": "United States"}, "ranking": {"current_rank": 298, "total": 503}, "featured_image": null, "latitude": 40.762505, "longitude": -73.97642, "amenities": ["Restaurant", "Room service", "Bar/Lounge", "Fitness center"], "providers": ["Expedia.com", "Hotels.com", "Booking.com", "Skyscanner.com"]}, {"id": 93610, "name": "Royalton New York", "link": "https://www.tripadvisor.com/Hotel_Review-g60763-d93610-Reviews-Royalton_New_York-New_York_City_New_York.html", "reviews": 3315, "rating": 4, "price_range_usd": {"min": 202, "max": 387}, "phone": "+1 212-869-4400", "address": "44 West 44th Street, New York City, NY 10036-6604", "detailed_address": {"street": "44 West 44th Street", "city": "New York City", "postal_code": "10036-6604", "state": "New York", "country": "United States"}, "ranking": {"current_rank": 256, "total": 503}, "featured_image": null, "latitude": 40.755596, "longitude": -73.98231, "amenities": ["Fitness center"], "providers": ["Skyscanner.com", "Official Site", "Algotels", "Booking.com"]}, {"id": 23115585, "name": "Hyatt Place New York/Chelsea", "link": "https://www.tripadvisor.com/Hotel_Review-g60763-d23115585-Reviews-Hyatt_Place_New_York_Chelsea-New_York_City_New_York.html", "reviews": 1380, "rating": 4, "price_range_usd": {"min": 209, "max": 397}, "phone": "+1 929-430-2400", "address": "140 W 24th St, New York City, NY 10011-1980", "detailed_address": {"street": "140 W 24th St", "city": "New York City", "postal_code": "10011-1980", "state": "New York", "country": "United States"}, "ranking": {"current_rank": 324, "total": 503}, "featured_image": null, "latitude": 40.74422, "longitude": -73.99415, "amenities": ["Free Wifi", "Breakfast included", "Restaurant", "Bar/Lounge", "Fitness center"], "providers": ["Hotels.com", "Expedia.com", "Booking.com", "ZenHotels.com"]}]}, "error": null}